Seconds,Battery Voltage,Pitch Rate,Roll Rate,Yaw Rate,Pitch Angle,Roll Angle,G-Force,Input Throttle,Input Pitch,Input Roll,Input Yaw,M1 Throttle,M2 Throttle,M3 Throttle,M4 Throttle,Cmd Last Received ms
9.063,16.4,0,0,0,3,-4,1.0,0,0,0,0,0,0,0,0,0
9.336,16.4,0,0,0,3,-4,1.0,0,0,0,0,0,0,0,0,0
9.605,16.3,-1,-1,-1,3,-4,1.0,0,0,0,0,0,0,0,0,270
9.875,16.3,-1,0,-1,3,-4,1.0,0,0,0,0,0,0,0,0,0
10.144,16.3,0,-1,-1,3,-4,1.0,0,0,0,0,0,0,0,0,270
10.416,16.3,-1,0,-1,3,-4,1.0,8,0,0,0,8,8,8,8,0
10.667,16.3,-1,0,-1,3,-4,1.0,8,0,0,0,8,8,8,8,10
10.919,16.3,-1,-1,0,3,-4,1.0,8,0,0,0,8,8,8,8,60
11.17,16.3,-1,-1,0,3,-4,1.0,8,0,0,0,8,8,8,8,30
11.422,16.4,0,0,-1,3,-4,1.0,8,0,0,0,8,8,8,8,40
11.673,16.3,0,-1,0,3,-4,1.0,8,0,0,0,8,8,8,8,30
11.924,16.3,-1,-1,0,3,-4,1.0,8,0,0,0,8,8,8,8,30
12.176,16.3,0,-1,0,3,-4,1.0,8,0,0,0,8,8,8,8,60
12.427,16.3,0,0,-1,3,-4,1.0,8,0,0,0,8,8,8,8,20
12.679,16.4,-1,0,0,3,-4,1.0,8,0,0,0,8,8,8,8,50
12.93,16.4,-1,0,-1,3,-4,1.0,23,0,0,0,23,23,23,23,20
13.183,16.4,-1,-1,0,3,-4,1.0,13,0,0,0,13,13,13,13,0
13.433,16.3,-1,-1,-1,3,-4,1.0,8,0,0,0,8,8,8,8,30
13.685,16.3,0,-1,0,3,-4,1.0,8,0,0,0,8,8,8,8,50
13.936,16.3,0,0,0,3,-4,1.0,8,0,0,0,8,8,8,8,20
14.188,16.3,-1,-1,0,3,-4,1.0,8,0,0,0,8,8,8,8,10
14.439,16.3,-1,-1,-1,3,-4,1.0,8,0,0,0,8,8,8,8,50
14.691,16.3,0,0,0,3,-4,1.0,8,0,0,0,8,8,8,8,40
14.942,16.3,0,0,0,3,-4,1.0,8,0,0,0,8,8,8,8,30
15.194,16.4,-1,-1,0,3,-4,1.0,8,0,0,0,8,8,8,8,10
15.445,16.3,0,-1,-1,3,-4,1.0,8,0,0,0,8,8,8,8,10
15.697,16.4,-1,0,-1,3,-4,1.0,8,0,0,0,8,8,8,8,50
15.948,16.3,0,0,-1,3,-4,1.0,8,0,0,0,8,8,8,8,30
16.199,16.3,-1,-1,-1,3,-4,1.0,8,0,0,0,8,8,8,8,10
16.451,16.3,-8,-15,3,3,0,1.0,8,0,0,0,8,8,8,8,10
16.702,16.3,28,16,-18,3,-1,1.0,8,0,0,0,8,8,8,8,40
16.954,16.3,16,3,1,2,2,0.8,8,0,0,0,8,8,8,8,10
17.205,16.3,-4,-24,-1,3,-1,1.0,8,0,0,0,8,8,8,8,30
17.457,16.3,0,1,0,3,-3,1.0,8,0,0,0,8,8,8,8,10
17.708,16.3,0,-1,-1,3,-2,1.0,8,0,0,0,8,8,8,8,30
17.96,16.3,-3,17,3,3,-2,1.0,8,0,0,0,8,8,8,8,20
18.211,16.3,10,69,2,3,4,0.9,8,0,0,0,8,8,8,8,40
18.463,16.3,-3,-69,-5,3,6,1.1,8,0,0,0,8,8,8,8,30
18.714,16.4,-5,19,-1,2,4,1.0,8,0,0,0,8,8,8,8,30
18.966,16.3,-8,54,1,2,5,1.1,8,0,0,0,8,8,8,8,10
19.217,16.3,-35,88,-14,1,3,1.3,8,0,0,0,8,8,8,8,50
19.469,16.3,-19,-66,-4,3,1,1.3,8,0,0,0,8,8,8,8,40
19.72,16.4,-18,-58,-1,3,3,1.2,8,0,0,0,8,8,8,8,30
19.971,16.4,-9,-77,23,4,5,1.0,8,0,0,0,8,8,8,8,10
20.223,16.3,0,-5,-1,3,-3,1.0,8,0,0,0,8,8,8,8,30
20.474,16.3,0,-1,-1,3,-2,1.0,8,0,0,0,8,8,8,8,30
20.726,16.4,-1,-1,-1,3,-2,1.0,8,0,0,0,8,8,8,8,10
20.977,16.3,0,-1,0,3,-2,1.0,8,0,0,0,8,8,8,8,10
21.229,16.3,-1,-1,-1,3,-2,1.0,8,0,0,0,8,8,8,8,50
21.48,16.3,-1,-1,-1,3,-2,1.0,8,0,0,0,8,8,8,8,30
21.732,16.3,0,-1,0,3,-2,1.0,8,0,0,0,8,8,8,8,30
21.983,16.3,-1,-1,-1,3,-2,1.0,8,0,0,0,8,8,8,8,50
22.235,16.4,0,-1,-1,3,-2,1.0,8,0,0,0,8,8,8,8,30
22.486,16.3,-1,-1,-1,3,-2,1.0,8,0,0,0,8,8,8,8,30
22.738,16.3,-1,0,0,3,-2,1.0,8,0,0,0,8,8,8,8,10
22.99,16.3,-1,-1,-1,3,-2,1.0,8,0,0,0,8,8,8,8,0
23.241,16.3,0,-1,-1,3,-2,1.0,8,0,0,0,8,8,8,8,50
23.492,16.3,-1,-1,-1,3,-2,1.0,8,0,0,0,8,8,8,8,30
23.744,16.3,-1,-1,0,3,-2,1.0,8,0,0,0,8,8,8,8,20
23.996,16.4,0,-1,0,3,-2,1.0,12,0,0,0,12,12,12,12,0
24.251,16.3,-1,-1,-1,3,-2,1.0,8,0,0,0,8,8,8,8,40
24.502,16.4,-1,-1,0,3,-2,1.0,25,0,0,0,25,25,25,25,20
24.754,16.3,0,-1,-1,3,-2,1.0,8,0,0,0,8,8,8,8,10
25.005,16.3,-1,0,-1,3,-2,1.0,8,0,0,0,8,8,8,8,10
25.257,16.3,0,0,-1,3,-2,1.0,8,0,0,0,8,8,8,8,40
25.508,16.4,-1,0,-1,3,-2,1.0,8,0,0,0,8,8,8,8,20
25.759,16.3,-1,-1,-1,3,-2,1.0,8,0,0,0,8,8,8,8,10
26.011,16.3,-1,-1,-1,3,-2,1.0,8,0,0,0,8,8,8,8,50
26.263,16.4,-1,-1,-1,3,-2,1.0,8,0,0,0,8,8,8,8,30
26.514,16.4,-1,-1,-1,3,-2,1.0,8,0,0,0,8,8,8,8,20
26.766,16.3,-1,0,0,3,-2,1.0,8,0,0,0,8,8,8,8,0
27.017,16.3,0,-1,-1,3,-2,1.0,8,0,0,0,8,8,8,8,50
27.537,16.3,-1,-1,-1,3,-2,1.0,0,0,0,0,0,0,0,0,460
27.847,16.4,0,-1,-1,3,-2,1.0,0,0,0,0,0,0,0,0,770
28.157,16.4,-1,-1,-1,3,-2,1.0,0,0,0,0,0,0,0,0,1080
28.466,16.3,0,-1,-1,3,-2,1.0,0,0,0,0,0,0,0,0,1390
28.777,16.3,-1,0,-1,3,-2,1.0,0,0,0,0,0,0,0,0,1700
29.087,16.3,0,0,0,3,-2,1.0,0,0,0,0,0,0,0,0,2010
29.397,16.4,-1,0,0,3,-2,1.0,0,0,0,0,0,0,0,0,0
29.708,16.4,-1,0,-1,3,-2,1.0,0,0,0,0,0,0,0,0,0
30.07,16.3,-1,0,-1,3,-2,1.0,0,0,0,0,0,0,0,0,370
30.383,16.3,-1,0,-1,3,-2,1.0,0,0,0,0,0,0,0,0,0
30.697,16.3,0,0,0,3,-2,1.0,0,0,0,0,0,0,0,0,0
31.007,16.3,-1,-1,-1,3,-2,1.0,0,0,0,0,0,0,0,0,310
31.319,16.4,0,-1,-1,3,-2,1.0,0,0,0,0,0,0,0,0,0
31.631,16.3,0,0,-1,3,-2,1.0,0,0,0,0,0,0,0,0,0
31.944,16.4,-1,-1,-1,3,-2,1.0,0,0,0,0,0,0,0,0,320
32.257,16.3,-1,-1,-1,3,-2,1.0,0,0,0,0,0,0,0,0,0
32.569,16.3,-1,0,-1,3,-2,1.0,0,0,0,0,0,0,0,0,310
32.882,16.3,-1,-1,0,3,-2,1.0,0,0,0,0,0,0,0,0,0
33.195,16.4,0,0,-1,3,-2,1.0,0,0,0,0,0,0,0,0,0
33.507,16.4,-1,-1,0,3,-2,1.0,0,0,0,0,0,0,0,0,320
33.822,16.4,-1,0,-1,3,-2,1.0,0,0,0,0,0,0,0,0,0
34.133,16.3,0,-1,-1,3,-2,1.0,0,0,0,0,0,0,0,0,310
34.446,16.3,-1,-1,-1,3,-2,1.0,0,0,0,0,0,0,0,0,0
34.759,16.3,0,0,0,3,-2,1.0,0,0,0,0,0,0,0,0,0
35.114,16.3,-1,0,-1,3,-2,1.0,0,0,0,0,0,0,0,0,360
35.427,16.3,0,-1,-1,3,-2,1.0,0,0,0,0,0,0,0,0,670
35.741,16.4,-1,-1,-1,3,-2,1.0,0,0,0,0,0,0,0,0,0
36.053,16.3,0,0,-1,3,-2,1.0,0,0,0,0,0,0,0,0,320
36.37,16.3,-1,0,-1,3,-2,1.0,0,0,0,0,0,0,0,0,0
36.683,16.3,0,0,0,3,-2,1.0,0,0,0,0,0,0,0,0,0
37.0,16.4,3,7,3,3,-1,1.0,0,0,0,0,0,0,0,0,320
37.313,16.3,-2,2,-5,4,-4,1.0,0,0,0,0,0,0,0,0,0
37.627,16.3,-2,-63,29,2,-6,1.0,0,0,0,0,0,0,0,0,320
37.938,16.3,-28,-25,66,2,-10,1.1,0,0,0,0,0,0,0,0,630
38.253,16.3,-24,33,86,-2,-5,0.9,0,0,0,0,0,0,0,0,0
38.566,16.3,-1,-7,0,3,2,1.0,0,0,0,0,0,0,0,0,320
38.882,16.3,-1,-2,-1,3,-2,1.0,0,0,0,0,0,0,0,0,0
39.195,16.3,0,0,0,3,-2,1.0,0,0,0,0,0,0,0,0,0
39.51,16.3,-1,-1,-1,3,-2,1.0,0,0,0,0,0,0,0,0,320
39.826,16.3,-1,-1,-1,3,-2,1.0,8,0,0,0,8,8,8,8,0
40.077,16.3,0,0,-1,3,-2,1.0,8,0,0,0,8,8,8,8,10
40.328,16.3,-1,-1,-1,3,-2,1.0,8,0,0,0,8,8,8,8,40
40.58,16.3,-1,-1,-1,3,-2,1.0,8,0,0,0,8,8,8,8,30
40.831,16.3,-1,-1,-1,3,-2,1.0,25,0,0,0,25,25,25,25,10
41.083,16.3,0,-1,-1,3,-2,1.0,11,0,0,0,11,11,11,11,50
41.334,16.3,0,-1,-1,3,-2,1.0,19,0,0,0,19,19,19,19,30
41.586,16.4,0,0,-1,3,-2,1.0,25,0,0,0,25,25,25,25,10
41.837,16.3,0,0,-1,3,-2,1.0,13,0,0,0,13,13,13,13,50
42.089,16.4,0,-1,-1,3,-2,1.0,25,0,0,0,25,25,25,25,20
42.34,16.3,-1,-1,-1,3,-2,1.0,9,0,0,0,9,9,9,9,30
42.591,16.3,0,-1,-1,3,-2,1.0,21,0,0,0,21,21,21,21,30
42.843,16.4,0,-1,-1,3,-2,1.0,8,0,0,0,8,8,8,8,10
43.095,16.4,-1,0,0,3,-2,1.0,8,0,0,0,8,8,8,8,50
43.346,16.3,0,-1,-1,3,-2,1.0,8,0,0,0,8,8,8,8,30
43.597,16.3,-1,-1,-1,3,-2,1.0,8,0,0,0,8,8,8,8,30
43.849,16.3,0,0,-1,3,-2,1.0,8,0,0,0,8,8,8,8,10
44.1,16.3,-1,0,-1,3,-2,1.0,8,0,0,0,8,8,8,8,50
44.352,16.3,0,0,-1,3,-2,1.0,8,0,0,0,8,8,8,8,30
44.603,16.3,0,-1,-1,3,-2,1.0,8,0,0,0,8,8,8,8,20
44.855,16.3,0,-1,-1,3,-2,1.0,8,0,0,0,8,8,8,8,0
45.106,16.4,0,-1,-1,3,-2,1.0,8,0,0,0,8,8,8,8,30
45.358,16.3,-1,0,-1,3,-2,1.0,8,0,0,0,8,8,8,8,30
45.609,16.3,-1,0,-1,3,-2,1.0,8,0,0,0,8,8,8,8,20
45.861,16.3,-1,-1,-1,3,-2,1.0,8,0,0,0,8,8,8,8,50
46.112,16.3,0,-1,-1,3,-2,1.0,8,0,0,0,8,8,8,8,40
46.363,16.4,0,0,-1,3,-2,1.0,8,0,0,0,8,8,8,8,30
46.615,16.4,0,-1,-1,3,-2,1.0,8,0,0,0,8,8,8,8,60
47.103,16.3,-1,0,-1,3,-2,1.0,0,0,0,0,0,0,0,0,430
47.421,16.3,-1,0,-1,3,-2,1.0,0,0,0,0,0,0,0,0,0
47.738,16.3,-1,-1,-1,3,-2,1.0,0,0,0,0,0,0,0,0,0
48.055,16.3,-1,-1,-1,3,-2,1.0,0,0,0,0,0,0,0,0,320
48.374,16.3,0,-1,-1,3,-2,1.0,0,0,0,0,0,0,0,0,0
48.695,16.3,-1,-1,-1,3,-2,1.0,0,0,0,0,0,0,0,0,320
49.01,16.4,0,0,-1,3,-2,1.0,0,0,0,0,0,0,0,0,0
49.327,16.3,0,-1,0,3,-2,1.0,0,0,0,0,0,0,0,0,0
49.647,16.3,0,-1,-1,3,-2,1.0,0,0,0,0,0,0,0,0,320
49.968,16.4,0,0,-1,3,-2,1.0,0,0,0,0,0,0,0,0,0
50.288,16.3,0,-1,0,3,-2,1.0,0,0,0,0,0,0,0,0,0
50.608,16.3,-1,0,-1,3,-2,1.0,0,0,0,0,0,0,0,0,320
50.928,16.3,0,-1,-1,3,-2,1.0,0,0,0,0,0,0,0,0,0
51.248,16.3,0,-1,0,3,-2,1.0,0,0,0,0,0,0,0,0,0
51.578,16.3,0,-1,0,3,-2,1.0,0,0,0,0,0,0,0,0,330
51.897,16.4,0,0,-1,3,-2,1.0,0,0,0,0,0,0,0,0,0
52.26,16.4,0,0,-1,3,-2,1.0,0,0,0,0,0,0,0,0,0
52.579,16.3,0,-1,0,3,-2,1.0,0,0,0,0,0,0,0,0,320
52.901,16.3,-1,-1,-1,3,-2,1.0,0,0,0,0,0,0,0,0,0
53.22,16.3,0,-1,-1,3,-2,1.0,0,0,0,0,0,0,0,0,320
53.543,16.3,0,0,-1,3,-2,1.0,0,0,0,0,0,0,0,0,0
53.862,16.3,0,-1,-1,3,-2,1.0,0,0,0,0,0,0,0,0,0
54.183,16.3,0,-1,-1,3,-2,1.0,0,0,0,0,0,0,0,0,320
54.504,16.3,0,-1,-1,3,-2,1.0,0,0,0,0,0,0,0,0,0
54.826,16.3,0,0,-1,3,-2,1.0,0,0,0,0,0,0,0,0,0
55.147,16.3,0,-1,-1,3,-2,1.0,0,0,0,0,0,0,0,0,320
55.47,16.3,-1,0,-1,3,-2,1.0,0,0,0,0,0,0,0,0,0
55.792,16.3,-1,0,-1,3,-2,1.0,0,0,0,0,0,0,0,0,0
56.116,16.3,0,-1,0,3,-2,1.0,0,0,0,0,0,0,0,0,330
56.441,16.4,0,-1,-1,3,-2,1.0,0,0,0,0,0,0,0,0,0
56.761,16.4,0,-1,0,3,-2,1.0,0,0,0,0,0,0,0,0,320
57.08,16.4,0,-1,-1,3,-2,1.0,0,0,0,0,0,0,0,0,0
57.446,16.3,0,-1,0,3,-2,1.0,0,0,0,0,0,0,0,0,0
57.769,16.3,0,0,0,3,-2,1.0,0,0,0,0,0,0,0,0,330
58.091,16.3,-1,-1,-1,3,-2,1.0,0,0,0,0,0,0,0,0,0
58.415,16.3,0,-1,-1,3,-2,1.0,0,0,0,0,0,0,0,0,0
58.735,16.3,0,0,-1,3,-2,1.0,0,0,0,0,0,0,0,0,320
59.06,16.3,0,-1,-1,3,-2,1.0,0,0,0,0,0,0,0,0,0
59.381,16.3,0,-1,-1,3,-2,1.0,0,0,0,0,0,0,0,0,0
59.703,16.3,-1,0,-1,3,-2,1.0,0,0,0,0,0,0,0,0,330
60.027,16.3,0,0,-1,3,-2,1.0,0,0,0,0,0,0,0,0,0
60.353,16.3,-1,-1,-1,3,-2,1.0,0,0,0,0,0,0,0,0,0
60.679,16.3,-1,-1,-1,3,-2,1.0,0,0,0,0,0,0,0,0,330
61.005,16.4,-1,-1,-1,3,-2,1.0,0,0,0,0,0,0,0,0,0
61.329,16.3,0,-1,-1,3,-2,1.0,0,0,0,0,0,0,0,0,330
61.655,16.3,0,-1,-1,3,-2,1.0,0,0,0,0,0,0,0,0,0
61.977,16.4,-1,-1,0,3,-2,1.0,0,0,0,0,0,0,0,0,0
62.303,16.4,0,-1,0,3,-2,1.0,0,0,0,0,0,0,0,0,330
62.675,16.3,0,-1,-1,3,-2,1.0,0,0,0,0,0,0,0,0,0
62.999,16.3,0,-1,0,3,-2,1.0,0,0,0,0,0,0,0,0,0
63.321,16.4,0,-1,-1,3,-2,1.0,0,0,0,0,0,0,0,0,320
63.643,16.3,-1,-1,0,3,-2,1.0,0,0,0,0,0,0,0,0,0
63.965,16.4,-1,-1,-1,3,-2,1.0,0,0,0,0,0,0,0,0,0
64.288,16.3,0,-1,-1,3,-2,1.0,0,0,0,0,0,0,0,0,330
64.61,16.3,-1,-1,-1,3,-2,1.0,0,0,0,0,0,0,0,0,0
64.936,16.3,0,-1,-1,3,-2,1.0,0,0,0,0,0,0,0,0,0
65.259,16.3,0,0,-1,3,-2,1.0,0,0,0,0,0,0,0,0,330
65.616,16.3,0,-1,0,3,-2,1.0,0,0,0,0,0,0,0,0,0
65.916,16.4,-1,-1,-1,3,-2,1.0,0,0,0,0,0,0,0,0,0
66.222,16.3,0,0,0,3,-2,1.0,0,0,0,0,0,0,0,0,310
66.527,16.3,-1,-1,-1,3,-2,1.0,0,0,0,0,0,0,0,0,0
66.833,16.3,-1,-1,-1,3,-2,1.0,0,0,0,0,0,0,0,0,310
67.136,16.4,0,-1,0,3,-2,1.0,0,0,0,0,0,0,0,0,0
67.44,16.3,-1,0,-1,3,-2,1.0,0,0,0,0,0,0,0,0,0
67.789,16.3,-1,-1,-1,3,-2,1.0,0,0,0,0,0,0,0,0,350
68.094,16.3,0,0,-1,3,-2,1.0,0,0,0,0,0,0,0,0,0
68.396,16.3,0,-1,-1,3,-2,1.0,0,0,0,0,0,0,0,0,300
68.699,16.3,0,-1,0,3,-2,1.0,0,0,0,0,0,0,0,0,0
69.003,16.4,-1,-1,0,3,-2,1.0,0,0,0,0,0,0,0,0,0
69.307,16.3,-1,-1,-1,3,-2,1.0,0,0,0,0,0,0,0,0,310
69.611,16.3,-1,-1,-1,3,-2,1.0,0,0,0,0,0,0,0,0,0
69.913,16.3,-1,-1,-1,3,-2,1.0,0,0,0,0,0,0,0,0,310
70.22,16.3,0,0,-1,3,-2,1.0,0,0,0,0,0,0,0,0,0
70.525,16.4,0,-1,-1,3,-2,1.0,0,0,0,0,0,0,0,0,0
70.829,16.3,0,-1,-1,3,-2,1.0,0,0,0,0,0,0,0,0,310
71.133,16.3,-1,-1,0,3,-2,1.0,0,0,0,0,0,0,0,0,0
71.45,16.3,-1,-1,-1,3,-2,1.0,0,0,0,0,0,0,0,0,0
71.754,16.3,-1,-1,-1,3,-2,1.0,0,0,0,0,0,0,0,0,310
72.06,16.3,0,-1,-1,3,-2,1.0,0,0,0,0,0,0,0,0,0
72.366,16.4,0,-1,-1,3,-2,1.0,0,0,0,0,0,0,0,0,310
72.718,16.3,-1,0,0,3,-2,1.0,0,0,0,0,0,0,0,0,0
73.024,16.3,-1,-1,-1,3,-2,1.0,0,0,0,0,0,0,0,0,0
73.328,16.3,0,-1,-1,3,-2,1.0,0,0,0,0,0,0,0,0,310
73.636,16.4,0,-1,-1,3,-2,1.0,0,0,0,0,0,0,0,0,0
73.94,16.3,0,-1,-1,3,-2,1.0,0,0,0,0,0,0,0,0,310
74.245,16.3,0,-1,-1,3,-2,1.0,0,0,0,0,0,0,0,0,610
74.55,16.3,3,-25,-5,3,-2,1.0,0,0,0,0,0,0,0,0,0
74.854,16.4,53,28,-8,12,3,1.3,0,0,0,0,0,0,0,0,310
75.16,16.3,-17,-25,29,11,-2,1.1,0,0,0,0,0,0,0,0,0
75.468,16.3,-1,-12,37,10,-5,0.8,0,0,0,0,0,0,0,0,310
75.776,16.3,-23,-47,93,10,-7,0.9,0,0,0,0,0,0,0,0,0
76.083,16.4,-19,1,102,17,-5,1.0,0,0,0,0,0,0,0,0,0
76.39,16.3,-15,0,28,-2,3,1.0,0,0,0,0,0,0,0,0,310
76.696,16.3,-8,-1,-6,-5,-5,1.0,0,0,0,0,0,0,0,0,0
77.003,16.3,9,9,-13,0,-9,1.0,0,0,0,0,0,0,0,0,310
77.31,16.3,0,7,0,2,-6,1.0,0,0,0,0,0,0,0,0,0
77.663,16.3,-4,-14,-1,3,-1,1.0,0,0,0,0,0,0,0,0,0
77.97,16.2,-2,-8,-1,3,0,1.0,0,0,0,0,0,0,0,0,310
78.276,16.4,-1,-2,-1,3,0,1.0,0,0,0,0,0,0,0,0,0
78.583,16.3,0,2,0,3,0,1.0,0,0,0,0,0,0,0,0,0
78.889,16.3,-1,-1,-1,2,0,1.0,0,0,0,0,0,0,0,0,310
79.199,16.3,0,0,0,3,0,1.0,0,0,0,0,0,0,0,0,0
79.504,16.4,0,-1,-1,3,0,1.0,0,0,0,0,0,0,0,0,310
79.811,16.3,0,0,-1,3,0,1.0,0,0,0,0,0,0,0,0,0
80.122,16.4,-1,-1,-1,3,0,1.0,8,0,0,0,8,8,8,8,0
80.373,16.3,-1,-1,-1,3,0,1.0,8,0,0,0,8,8,8,8,50
80.625,16.3,-1,-1,-1,3,0,1.0,8,0,0,0,8,8,8,8,40
80.876,16.3,-1,0,-1,3,0,1.0,8,0,0,0,8,8,8,8,40
81.128,16.3,0,0,-1,3,0,1.0,8,0,0,0,8,8,8,8,60
81.379,16.3,0,0,-1,3,0,1.0,8,0,0,0,8,8,8,8,40
81.63,16.3,-2,-7,-1,2,-1,1.0,8,0,0,0,8,8,8,8,20
81.882,16.3,-9,-35,-3,3,0,1.0,8,0,0,0,8,8,8,8,10
82.133,16.3,1,5,-1,3,-1,1.0,8,0,0,0,8,8,8,8,30
82.385,16.4,-1,-3,-1,3,0,1.0,8,0,0,0,8,8,8,8,10
82.636,16.3,-1,-1,-1,3,0,1.0,8,0,0,0,8,8,8,8,60
82.888,16.3,-3,-17,-1,2,-1,1.0,8,0,0,0,8,8,8,8,20
83.139,16.3,-1,-6,-1,2,-1,1.0,8,0,0,0,8,8,8,8,50
83.391,16.3,2,10,0,2,-1,1.0,8,0,0,0,8,8,8,8,40
83.642,16.3,0,1,-1,3,0,1.0,8,0,0,0,8,8,8,8,10
83.894,16.3,-1,-4,-1,3,0,1.0,8,0,0,0,8,8,8,8,50
84.145,16.3,1,4,0,3,0,1.0,8,0,0,0,8,8,8,8,40
84.397,16.3,-1,-3,-1,2,-1,1.0,8,0,0,0,8,8,8,8,30
84.648,16.3,0,3,0,2,-1,1.0,8,0,0,0,8,8,8,8,10
84.9,16.4,-3,-10,0,3,0,1.0,8,0,0,0,8,8,8,8,0
85.152,16.3,0,0,-1,2,-1,1.0,8,0,0,0,8,8,8,8,50
85.403,16.3,6,23,-8,2,0,1.1,8,0,0,0,8,8,8,8,30
85.655,16.4,-2,-5,-1,3,0,1.0,8,0,0,0,8,8,8,8,20
85.907,16.4,1,15,0,2,-2,1.0,8,0,0,0,8,8,8,8,0
86.158,16.3,1,5,-1,3,0,1.0,8,0,0,0,8,8,8,8,50
86.41,16.3,5,39,-8,2,-2,1.0,8,0,0,0,8,8,8,8,30
86.661,16.3,5,41,-17,2,-2,1.0,8,0,0,0,8,8,8,8,20
86.913,16.3,-12,-75,6,2,-3,1.0,8,0,0,0,8,8,8,8,10
87.164,16.3,-1,-2,-1,3,0,1.0,8,0,0,0,8,8,8,8,40
87.415,16.3,-1,-1,-1,3,0,1.0,8,0,0,0,8,8,8,8,20
87.667,16.4,-2,-8,-1,2,-1,1.0,8,0,0,0,8,8,8,8,10
87.918,16.4,0,0,0,3,0,1.0,8,0,0,0,8,8,8,8,10
88.17,16.3,0,1,0,3,0,1.0,8,0,0,0,8,8,8,8,40
88.421,16.3,0,0,0,3,0,1.0,8,0,0,0,8,8,8,8,30
88.673,16.4,0,0,-1,3,-1,1.0,8,0,0,0,8,8,8,8,10
88.925,16.3,-1,-2,-1,3,-1,1.0,8,0,0,0,8,8,8,8,40
89.176,16.3,-1,-1,-1,2,-1,1.0,8,0,0,0,8,8,8,8,40
89.427,16.3,1,5,0,3,0,1.0,8,0,0,0,8,8,8,8,10
89.679,16.3,-1,-4,0,3,0,1.0,8,0,0,0,8,8,8,8,10
89.931,16.4,1,5,-1,3,0,1.0,8,0,0,0,8,8,8,8,0
90.183,16.3,0,8,-1,3,1,1.0,8,0,0,0,8,8,8,8,50
90.434,16.4,-2,7,-5,2,3,1.0,8,0,0,0,8,8,8,8,30
90.685,16.3,-1,9,0,2,4,1.0,8,0,0,0,8,8,8,8,10
90.937,16.3,0,6,0,2,5,1.0,8,0,0,0,8,8,8,8,10
91.188,16.3,-1,5,0,2,7,1.0,8,0,0,0,8,8,8,8,40
91.44,16.3,-1,-2,-8,2,7,1.0,8,0,0,0,8,8,8,8,20
91.691,16.3,4,12,8,3,9,1.0,8,0,0,0,8,8,8,8,10
91.943,16.4,-1,0,-1,2,9,1.0,8,0,0,0,8,8,8,8,10
92.194,16.4,1,-19,-3,2,7,1.0,8,0,0,0,8,8,8,8,40
92.446,16.4,-8,-53,0,2,-3,1.0,8,0,0,0,8,8,8,8,10
92.697,16.3,1,10,0,2,-6,1.0,8,0,0,0,8,8,8,8,50
92.949,16.3,-12,-58,-2,2,0,1.1,8,0,0,0,8,8,8,8,40
93.2,16.4,-2,-12,-1,2,-1,1.0,8,0,0,0,8,8,8,8,20
93.452,16.3,2,12,0,2,0,1.0,8,0,0,0,8,8,8,8,0
93.704,16.4,-2,-8,-1,3,0,1.0,8,0,0,0,8,8,8,8,50
93.955,16.3,-1,-4,0,3,0,1.0,8,0,0,0,8,8,8,8,30
94.206,16.3,-1,-3,0,3,0,1.0,8,0,0,0,8,8,8,8,20
94.459,16.3,-1,-2,-1,3,0,1.0,8,0,0,0,8,8,8,8,0
94.71,16.3,-1,-1,0,3,0,1.0,8,0,0,0,8,8,8,8,40
94.961,16.3,0,0,-1,3,0,1.0,8,0,0,0,8,8,8,8,20
95.213,16.4,0,0,-1,3,0,1.0,8,0,0,0,8,8,8,8,10
95.465,16.3,0,0,-1,3,0,1.0,8,0,0,0,8,8,8,8,40
95.719,16.3,-1,-1,-1,3,0,1.0,8,0,0,0,8,8,8,8,30
95.971,16.3,-1,-1,-1,3,0,1.0,8,0,0,0,8,8,8,8,20
96.222,16.3,-1,0,-1,3,0,1.0,8,0,0,0,8,8,8,8,50
96.474,16.4,-1,-1,-1,3,0,1.0,8,0,0,0,8,8,8,8,40
96.725,16.4,-1,-1,-1,3,0,1.0,8,0,0,0,8,8,8,8,60
96.977,16.4,0,-1,-1,3,0,1.0,8,0,0,0,8,8,8,8,40
97.228,16.3,0,-1,-1,3,0,1.0,8,0,0,0,8,8,8,8,20
97.48,16.3,0,0,-1,3,0,1.0,8,0,0,0,8,8,8,8,10
97.731,16.3,0,-1,-1,3,0,1.0,8,0,0,0,8,8,8,8,40
97.983,16.3,-1,-2,-1,3,0,1.0,8,0,0,0,8,8,8,8,30
98.234,16.3,-1,-2,-1,3,0,1.0,8,0,0,0,8,8,8,8,10
98.486,16.3,0,1,-1,3,0,1.0,8,0,0,0,8,8,8,8,50
98.737,16.3,0,1,-1,2,0,1.0,8,0,0,0,8,8,8,8,40
98.988,16.4,1,4,-1,3,0,1.0,8,0,0,0,8,8,8,8,30
99.24,16.4,0,3,0,2,0,1.0,8,0,0,0,8,8,8,8,10
99.491,16.3,0,0,-1,3,0,1.0,8,0,0,0,8,8,8,8,40
99.743,16.2,0,2,-1,2,0,1.0,8,0,0,0,8,8,8,8,30
99.994,16.3,-1,-2,-1,3,0,1.0,8,0,0,0,8,8,8,8,20
100.246,16.4,0,0,-1,3,0,1.0,8,0,0,0,8,8,8,8,50
100.497,16.4,1,6,0,2,-1,1.0,8,0,0,0,8,8,8,8,40
100.749,16.4,-1,-3,0,3,0,1.0,8,0,0,0,8,8,8,8,20
101.0,16.3,0,-1,-1,3,0,1.0,8,0,0,0,8,8,8,8,10
101.252,16.3,-1,-1,0,3,0,1.0,8,0,0,0,8,8,8,8,50
101.503,16.3,-1,-2,-1,2,-1,1.0,8,0,0,0,8,8,8,8,30
101.755,16.3,-1,-4,-1,2,0,1.0,8,0,0,0,8,8,8,8,10
102.007,16.3,-1,-3,0,2,0,1.0,8,0,0,0,8,8,8,8,0
102.262,16.3,-1,-1,-1,3,0,1.0,8,0,0,0,8,8,8,8,30
102.513,16.4,-1,-2,0,2,0,1.0,8,0,0,0,8,8,8,8,10
102.765,16.4,-2,-5,-1,2,-1,1.0,8,0,0,0,8,8,8,8,30
103.016,16.4,-1,-2,0,2,0,1.0,8,0,0,0,8,8,8,8,10
103.268,16.3,0,0,-1,2,0,1.0,8,0,0,0,8,8,8,8,60
103.519,16.3,0,0,-1,3,0,1.0,8,0,0,0,8,8,8,8,30
103.77,16.3,0,0,-1,3,0,1.0,8,0,0,0,8,8,8,8,20
104.022,16.4,0,0,-1,3,0,1.0,8,0,0,0,8,8,8,8,50
104.273,16.3,0,-1,-1,3,0,1.0,8,0,0,0,8,8,8,8,30
104.525,16.4,-1,-1,-1,3,0,1.0,8,0,0,0,8,8,8,8,10
104.776,16.4,-1,-1,-1,3,0,1.0,8,0,0,0,8,8,8,8,50
105.028,16.3,0,-1,-1,3,0,1.0,8,0,0,0,8,8,8,8,30
105.279,16.3,1,7,0,2,-2,1.0,8,0,0,0,8,8,8,8,20
105.531,16.4,1,5,0,3,0,1.0,8,0,0,0,8,8,8,8,10
105.782,16.3,-1,-1,-1,3,0,1.0,8,0,0,0,8,8,8,8,40
106.034,16.4,-1,-1,-1,3,0,1.0,8,0,0,0,8,8,8,8,30
106.285,16.3,0,1,-1,3,0,1.0,8,0,0,0,8,8,8,8,10
106.536,16.3,-1,-3,-1,3,0,1.0,8,0,0,0,8,8,8,8,10
106.788,16.3,-1,-2,-1,3,0,1.0,8,0,0,0,8,8,8,8,40
107.039,16.3,-1,-3,0,3,0,1.0,8,0,0,0,8,8,8,8,20
107.291,16.4,-1,-1,-1,3,0,1.0,8,0,0,0,8,8,8,8,10
107.542,16.3,0,-1,-1,3,0,1.0,8,0,0,0,8,8,8,8,30
107.794,16.4,0,2,-1,3,0,1.0,8,0,0,0,8,8,8,8,10
108.046,16.4,-3,-8,0,3,0,1.0,8,0,0,0,8,8,8,8,50
108.297,16.3,-3,-8,-1,3,0,1.0,8,0,0,0,8,8,8,8,40
108.548,16.3,-2,-5,-1,3,0,1.0,8,0,0,0,8,8,8,8,20
108.801,16.3,-1,-3,0,2,0,1.0,8,0,0,0,8,8,8,8,0
109.051,16.3,-1,-1,-1,3,0,1.0,8,0,0,0,8,8,8,8,50
109.303,16.3,-1,-1,-1,3,0,1.0,8,0,0,0,8,8,8,8,30
109.554,16.4,0,0,-1,3,0,1.0,8,0,0,0,8,8,8,8,20
109.806,16.3,0,0,-1,3,0,1.0,8,0,0,0,8,8,8,8,10
110.617,16.3,0,0,-1,3,0,1.0,0,0,0,0,0,0,0,0,0
110.938,16.3,0,-1,-1,3,0,1.0,0,0,0,0,0,0,0,0,320
111.258,16.4,-1,-1,-1,3,0,1.0,0,0,0,0,0,0,0,0,0
111.581,16.3,1,2,-1,3,0,1.0,0,0,0,0,0,0,0,0,0
111.902,16.3,-2,-4,-1,3,0,1.0,0,0,0,0,0,0,0,0,320
112.224,16.3,1,6,-1,3,0,1.0,0,0,0,0,0,0,0,0,0
112.544,16.3,4,16,-1,3,0,1.0,0,0,0,0,0,0,0,0,320
112.909,16.3,3,15,0,2,-1,1.0,0,0,0,0,0,0,0,0,0
113.229,16.3,-1,-3,-1,3,0,1.0,0,0,0,0,0,0,0,0,0
113.553,16.3,-1,-1,-1,3,0,1.0,0,0,0,0,0,0,0,0,0
113.873,16.4,0,1,-1,3,0,1.0,0,0,0,0,0,0,0,0,320
114.196,16.3,0,1,-1,2,0,1.0,0,0,0,0,0,0,0,0,0
114.516,16.3,-1,-1,-1,3,0,1.0,0,0,0,0,0,0,0,0,320
114.838,16.3,-1,-1,-1,3,0,1.0,0,0,0,0,0,0,0,0,0
115.159,16.3,0,0,-1,3,0,1.0,0,0,0,0,0,0,0,0,0
115.478,16.3,0,0,0,2,0,1.0,0,0,0,0,0,0,0,0,320
115.801,16.4,0,-1,-1,3,0,1.0,0,0,0,0,0,0,0,0,0
116.124,16.4,0,-1,-1,3,0,1.0,0,0,0,0,0,0,0,0,0
116.456,16.3,-1,-1,-1,3,0,1.0,0,0,0,0,0,0,0,0,340
116.778,16.3,-1,-1,-1,3,0,1.0,0,0,0,0,0,0,0,0,0
117.104,16.3,-1,-1,-1,3,0,1.0,0,0,0,0,0,0,0,0,0
117.427,16.3,0,0,-1,3,0,1.0,0,0,0,0,0,0,0,0,330
117.75,16.3,0,-1,-1,2,0,1.0,0,0,0,0,0,0,0,0,0
118.123,16.3,-1,-1,-1,3,0,1.0,0,0,0,0,0,0,0,0,0
118.446,16.3,-1,-1,-1,3,0,1.0,0,0,0,0,0,0,0,0,330
118.771,16.3,-1,-1,-1,3,0,1.0,0,0,0,0,0,0,0,0,0
119.091,16.3,0,-1,0,3,0,1.0,0,0,0,0,0,0,0,0,320
119.427,16.3,-1,-3,-1,2,0,1.0,0,0,0,0,0,0,0,0,0
119.78,16.2,1,4,16,3,2,1.0,0,0,0,0,0,0,0,0,0
120.083,16.3,-1,-1,-1,2,-1,1.0,0,0,0,0,0,0,0,0,310
120.386,16.5,-1,-2,0,2,0,1.0,0,0,0,0,0,0,0,0,0
120.695,16.5,0,2,0,3,0,1.0,0,0,0,0,0,0,0,0,0
9.079,16.3,0,-1,0,2,0,1.0,0,0,0,0,0,0,0,0,0
9.386,16.3,0,-1,0,2,0,1.0,0,0,0,0,0,0,0,0,0
9.689,16.4,0,-1,0,2,0,1.0,0,0,0,0,0,0,0,0,0
9.992,16.3,0,-1,-1,2,0,1.0,0,0,0,0,0,0,0,0,0
10.295,16.3,-1,0,0,2,0,1.0,0,0,0,0,0,0,0,0,310
10.6,16.3,0,0,0,2,0,1.0,0,0,0,0,0,0,0,0,0
10.905,16.3,-1,-1,-1,2,0,1.0,0,0,0,0,0,0,0,0,310
11.256,16.3,-1,0,-1,2,0,1.0,0,0,0,0,0,0,0,0,0
11.56,16.3,0,-1,-1,2,0,1.0,0,0,0,0,0,0,0,0,0
11.866,16.3,0,-1,0,2,0,1.0,0,0,0,0,0,0,0,0,310
12.17,16.3,-1,-1,-1,2,0,1.0,0,0,0,0,0,0,0,0,0
12.473,16.3,0,-1,-1,2,0,1.0,0,0,0,0,0,0,0,0,0
12.776,16.2,-1,-1,-1,2,0,1.0,0,0,0,0,0,0,0,0,310
13.081,16.3,-1,-1,0,2,0,1.0,0,0,0,0,0,0,0,0,0
13.385,16.3,0,0,0,2,0,1.0,0,0,0,0,0,0,0,0,310
13.691,16.3,0,-1,0,2,0,1.0,0,0,0,0,0,0,0,0,0
13.994,16.3,0,-1,0,2,0,1.0,0,0,0,0,0,0,0,0,0
14.3,16.3,-1,0,-1,2,0,1.0,0,0,0,0,0,0,0,0,310
14.604,16.3,-1,-1,-1,2,0,1.0,0,0,0,0,0,0,0,0,0
14.911,16.4,0,0,0,2,0,1.0,0,0,0,0,0,0,0,0,310
15.216,16.3,-1,0,0,2,0,1.0,0,0,0,0,0,0,0,0,0
15.521,16.3,-1,-1,0,2,0,1.0,0,0,0,0,0,0,0,0,310
15.826,16.3,0,-1,-1,2,0,1.0,0,0,0,0,0,0,0,0,0
16.176,16.3,0,-1,-1,2,0,1.0,0,0,0,0,0,0,0,0,0
16.484,16.3,0,-1,0,2,0,1.0,0,0,0,0,0,0,0,0,310
16.788,16.3,0,-1,-1,2,0,1.0,0,0,0,0,0,0,0,0,620
17.094,16.4,0,-1,0,2,0,1.0,0,0,0,0,0,0,0,0,0
17.399,16.3,0,-1,-1,2,0,1.0,0,0,0,0,0,0,0,0,310
17.707,16.3,0,0,0,2,0,1.0,0,0,0,0,0,0,0,0,0
18.015,16.3,0,-1,0,2,0,1.0,0,0,0,0,0,0,0,0,310
18.324,16.3,0,-1,0,2,0,1.0,0,0,0,0,0,0,0,0,0
18.63,16.3,-1,0,0,2,0,1.0,8,0,0,0,8,8,8,8,0
18.881,16.3,0,-1,0,2,0,1.0,8,0,0,0,8,8,8,8,10
19.133,16.3,0,0,0,2,0,1.0,8,0,0,0,8,8,8,8,40
19.384,16.3,-1,-1,0,2,0,1.0,8,0,0,0,8,8,8,8,20
19.636,16.3,0,-1,0,2,0,1.0,8,0,0,0,8,8,8,8,50
20.118,16.4,-1,-1,0,2,0,1.0,0,0,0,0,0,0,0,0,310
20.425,16.3,0,-1,-1,2,0,1.0,0,0,0,0,0,0,0,0,0
20.732,16.3,0,0,0,2,0,1.0,0,0,0,0,0,0,0,0,310
21.04,16.3,0,0,0,2,0,1.0,0,0,0,0,0,0,0,0,0
21.346,16.3,0,-1,0,2,0,1.0,0,0,0,0,0,0,0,0,0
21.655,16.3,-1,0,-1,2,0,1.0,0,0,0,0,0,0,0,0,310
21.964,16.4,-1,-1,0,2,0,1.0,0,0,0,0,0,0,0,0,0
22.321,16.3,0,0,0,2,0,1.0,0,0,0,0,0,0,0,0,360
22.626,16.3,-1,-1,-1,2,0,1.0,0,0,0,0,0,0,0,0,0
22.936,16.3,0,-1,0,2,0,1.0,0,0,0,0,0,0,0,0,0
23.244,16.3,0,0,-1,2,0,1.0,0,0,0,0,0,0,0,0,310
23.552,16.4,0,-1,-1,2,0,1.0,0,0,0,0,0,0,0,0,0
23.861,16.3,0,0,0,2,0,1.0,0,0,0,0,0,0,0,0,310
24.17,16.3,-1,-1,-1,2,0,1.0,0,0,0,0,0,0,0,0,620
24.48,16.3,0,-1,0,2,0,1.0,0,0,0,0,0,0,0,0,930
24.792,16.3,-1,-1,0,2,0,1.0,0,0,0,0,0,0,0,0,1240
25.104,16.3,0,0,0,2,0,1.0,0,0,0,0,0,0,0,0,1550
25.424,16.3,0,-1,-1,2,0,1.0,0,0,0,0,0,0,0,0,0
25.731,16.4,0,-1,0,2,0,1.0,0,0,0,0,0,0,0,0,310
26.041,16.4,0,-1,-1,2,0,1.0,0,0,0,0,0,0,0,0,0
26.351,16.3,0,-1,0,2,0,1.0,0,0,0,0,0,0,0,0,310
26.662,16.4,0,-1,0,2,0,1.0,0,0,0,0,0,0,0,0,0
26.973,16.3,0,-1,-1,2,0,1.0,0,0,0,0,0,0,0,0,0
27.33,16.3,-1,-1,0,2,0,1.0,0,0,0,0,0,0,0,0,360
27.644,16.3,-1,-1,-1,2,0,1.0,0,0,0,0,0,0,0,0,0
27.952,16.3,0,-1,-1,2,0,1.0,0,0,0,0,0,0,0,0,310
28.264,16.2,0,-1,0,2,0,1.0,0,0,0,0,0,0,0,0,0
28.574,16.3,0,-1,0,2,0,1.0,0,0,0,0,0,0,0,0,0
28.884,16.3,0,0,-1,2,0,1.0,0,0,0,0,0,0,0,0,310
29.201,16.3,0,-1,-1,2,0,1.0,0,0,0,0,0,0,0,0,0
29.514,16.3,0,0,0,2,0,1.0,0,0,0,0,0,0,0,0,0
29.827,16.3,0,-1,-1,2,0,1.0,0,0,0,0,0,0,0,0,320
30.143,16.4,-1,-1,0,2,0,1.0,0,0,0,0,0,0,0,0,0
30.453,16.4,0,0,-1,2,0,1.0,0,0,0,0,0,0,0,0,310
30.767,16.3,0,0,-1,2,0,1.0,0,0,0,0,0,0,0,0,0
31.085,16.3,0,-1,-1,2,0,1.0,0,0,0,0,0,0,0,0,0
31.396,16.3,0,-1,0,2,0,1.0,0,0,0,0,0,0,0,0,310
31.709,16.2,-1,-1,0,2,0,1.0,0,0,0,0,0,0,0,0,0
32.018,16.3,0,-1,-1,2,0,1.0,0,0,0,0,0,0,0,0,310
32.371,16.3,-1,-1,-1,2,0,1.0,0,0,0,0,0,0,0,0,0
32.682,16.3,0,0,-1,2,0,1.0,0,0,0,0,0,0,0,0,0
32.993,16.4,0,-1,-1,2,0,1.0,0,0,0,0,0,0,0,0,310
33.307,16.3,-1,-1,0,2,0,1.0,0,0,0,0,0,0,0,0,0
33.616,16.3,0,0,-1,2,0,1.0,0,0,0,0,0,0,0,0,0
33.927,16.3,0,-1,0,2,0,1.0,0,0,0,0,0,0,0,0,310
34.238,16.4,0,0,-1,2,0,1.0,0,0,0,0,0,0,0,0,0
34.552,16.4,-1,-1,-1,2,0,1.0,0,0,0,0,0,0,0,0,320
34.865,16.3,-1,-1,0,2,0,1.0,0,0,0,0,0,0,0,0,0
35.181,16.3,0,-1,-1,2,0,1.0,0,0,0,0,0,0,0,0,0
35.492,16.3,0,-1,-1,2,0,1.0,0,0,0,0,0,0,0,0,310
35.803,16.3,0,-1,0,2,0,1.0,0,0,0,0,0,0,0,0,0
36.119,16.3,-1,0,0,2,0,1.0,0,0,0,0,0,0,0,0,0
36.432,16.3,0,-1,-1,2,0,1.0,0,0,0,0,0,0,0,0,320
36.744,16.4,-1,0,0,2,0,1.0,0,0,0,0,0,0,0,0,0
37.055,16.3,0,-1,-1,2,0,1.0,0,0,0,0,0,0,0,0,310
37.416,16.3,0,0,0,2,0,1.0,0,0,0,0,0,0,0,0,0
37.728,16.3,0,0,-1,2,0,1.0,0,0,0,0,0,0,0,0,0
38.039,16.3,0,0,0,2,0,1.0,0,0,0,0,0,0,0,0,310
38.352,16.3,0,-1,0,2,0,1.0,0,0,0,0,0,0,0,0,0
38.668,16.4,0,-1,0,2,0,1.0,0,0,0,0,0,0,0,0,320
38.982,16.3,0,-1,0,2,0,1.0,0,0,0,0,0,0,0,0,0
39.297,16.3,0,0,0,2,0,1.0,0,0,0,0,0,0,0,0,0
39.609,16.3,0,-1,-1,2,0,1.0,0,0,0,0,0,0,0,0,310
39.924,16.4,-1,-1,0,2,0,1.0,0,0,0,0,0,0,0,0,0
40.237,16.4,0,-1,0,2,0,1.0,0,0,0,0,0,0,0,0,0
40.552,16.4,0,-1,0,2,0,1.0,0,0,0,0,0,0,0,0,320
40.868,16.3,0,-1,0,2,0,1.0,0,0,0,0,0,0,0,0,0
41.183,16.3,0,0,-1,2,0,1.0,0,0,0,0,0,0,0,0,320
41.499,16.4,0,-1,-1,2,0,1.0,0,0,0,0,0,0,0,0,0
41.814,16.3,-1,-1,0,2,0,1.0,0,0,0,0,0,0,0,0,0
42.129,16.4,0,-1,0,2,0,1.0,0,0,0,0,0,0,0,0,320
42.486,16.3,0,-1,0,2,0,1.0,0,0,0,0,0,0,0,0,0
42.802,16.3,-1,0,0,2,0,1.0,0,0,0,0,0,0,0,0,0
43.114,16.3,0,-1,0,2,0,1.0,0,0,0,0,0,0,0,0,320
43.428,16.3,0,0,0,2,0,1.0,0,0,0,0,0,0,0,0,0
43.742,16.3,-1,-1,0,2,0,1.0,0,0,0,0,0,0,0,0,320
44.061,16.3,0,0,-1,2,0,1.0,0,0,0,0,0,0,0,0,0
44.377,16.3,0,-1,-1,2,0,1.0,0,0,0,0,0,0,0,0,0
44.692,16.3,0,-1,-1,2,0,1.0,0,0,0,0,0,0,0,0,320
45.019,16.3,-1,0,0,2,0,1.0,0,0,0,0,0,0,0,0,0
45.334,16.4,-1,0,0,2,0,1.0,0,0,0,0,0,0,0,0,0
45.65,16.3,0,-1,0,2,0,1.0,0,0,0,0,0,0,0,0,320
45.966,16.4,0,0,0,2,0,1.0,0,0,0,0,0,0,0,0,0
46.282,16.3,-1,-1,-1,2,0,1.0,0,0,0,0,0,0,0,0,320
46.6,16.4,0,0,0,2,0,1.0,0,0,0,0,0,0,0,0,0
46.917,16.3,0,-1,-1,2,0,1.0,0,0,0,0,0,0,0,0,0
47.233,16.3,0,-1,0,2,0,1.0,0,0,0,0,0,0,0,0,320
47.594,16.3,0,-1,0,2,0,1.0,0,0,0,0,0,0,0,0,0
47.912,16.3,-1,0,0,2,0,1.0,0,0,0,0,0,0,0,0,0
48.226,16.3,0,-1,0,2,0,1.0,0,0,0,0,0,0,0,0,320
48.543,16.4,0,-1,-1,2,0,1.0,0,0,0,0,0,0,0,0,0
48.863,16.3,0,-1,0,2,0,1.0,0,0,0,0,0,0,0,0,0
49.178,16.4,-1,0,-1,2,0,1.0,0,0,0,0,0,0,0,0,320
49.498,16.3,0,0,0,2,0,1.0,0,0,0,0,0,0,0,0,0
49.813,16.3,0,-1,-1,2,0,1.0,0,0,0,0,0,0,0,0,320
50.132,16.3,0,0,0,2,0,1.0,0,0,0,0,0,0,0,0,0
50.449,16.3,-1,0,0,2,0,1.0,0,0,0,0,0,0,0,0,0
50.765,16.4,0,0,0,2,0,1.0,0,0,0,0,0,0,0,0,320
51.081,16.3,0,0,0,2,0,1.0,0,0,0,0,0,0,0,0,0
51.397,16.3,0,-1,-1,2,0,1.0,0,0,0,0,0,0,0,0,320
51.714,16.3,-1,-1,-1,2,0,1.0,0,0,0,0,0,0,0,0,0
52.034,16.3,0,-1,-1,2,0,1.0,0,0,0,0,0,0,0,0,0
52.352,16.3,0,-1,-1,2,0,1.0,0,0,0,0,0,0,0,0,320
52.713,16.3,0,-1,-1,2,0,1.0,0,0,0,0,0,0,0,0,0
53.028,16.3,0,0,0,2,0,1.0,0,0,0,0,0,0,0,0,0
53.344,16.3,0,-1,-1,2,0,1.0,0,0,0,0,0,0,0,0,320
53.663,16.4,0,0,-1,2,0,1.0,0,0,0,0,0,0,0,0,0
53.982,16.4,-1,-1,-1,2,0,1.0,0,0,0,0,0,0,0,0,0
54.3,16.3,0,-1,0,2,0,1.0,0,0,0,0,0,0,0,0,320
54.619,16.3,0,0,0,2,0,1.0,0,0,0,0,0,0,0,0,0
54.946,16.3,0,0,-1,2,0,1.0,0,0,0,0,0,0,0,0,330
55.267,16.3,0,0,0,2,0,1.0,0,0,0,0,0,0,0,0,0
55.589,16.3,-1,-1,-1,2,0,1.0,0,0,0,0,0,0,0,0,0
55.908,16.4,0,-1,-1,2,0,1.0,0,0,0,0,0,0,0,0,320
56.226,16.3,0,-1,-1,2,0,1.0,0,0,0,0,0,0,0,0,0
56.55,16.3,0,-1,0,2,0,1.0,0,0,0,0,0,0,0,0,0
56.868,16.3,0,0,-1,2,0,1.0,0,0,0,0,0,0,0,0,320
57.189,16.3,0,-1,0,2,0,1.0,0,0,0,0,0,0,0,0,0
57.507,16.3,0,-1,-1,2,0,1.0,0,0,0,0,0,0,0,0,320
57.872,16.4,0,-1,-1,2,0,1.0,0,0,0,0,0,0,0,0,0
58.188,16.3,-1,-1,0,2,0,1.0,0,0,0,0,0,0,0,0,0
58.509,16.3,-1,-1,0,2,0,1.0,0,0,0,0,0,0,0,0,320
58.829,16.4,0,-1,0,2,0,1.0,0,0,0,0,0,0,0,0,0
59.156,16.3,0,-1,0,2,0,1.0,0,0,0,0,0,0,0,0,0
59.476,16.3,0,-1,-1,2,0,1.0,0,0,0,0,0,0,0,0,320
59.797,16.3,0,0,-1,2,0,1.0,0,0,0,0,0,0,0,0,0
60.121,16.3,0,-1,0,2,0,1.0,0,0,0,0,0,0,0,0,0
60.44,16.3,0,-1,0,2,0,1.0,0,0,0,0,0,0,0,0,320
60.76,16.4,0,-1,0,2,0,1.0,0,0,0,0,0,0,0,0,0
61.083,16.3,0,-1,0,2,0,1.0,0,0,0,0,0,0,0,0,330
61.401,16.3,-1,-1,0,2,0,1.0,0,0,0,0,0,0,0,0,0
61.722,16.3,0,0,-1,2,0,1.0,0,0,0,0,0,0,0,0,0
62.041,16.4,-1,0,0,2,0,1.0,0,0,0,0,0,0,0,0,320
62.363,16.4,0,-1,-1,2,0,1.0,0,0,0,0,0,0,0,0,0
62.683,16.3,0,-1,0,2,0,1.0,0,0,0,0,0,0,0,0,0
63.05,16.3,0,0,-1,2,0,1.0,0,0,0,0,0,0,0,0,370
63.372,16.4,0,-1,0,2,0,1.0,0,0,0,0,0,0,0,0,0
63.693,16.3,0,-1,0,2,0,1.0,0,0,0,0,0,0,0,0,0
64.014,16.3,0,-1,0,2,0,1.0,0,0,0,0,0,0,0,0,320
64.336,16.4,0,-1,-1,2,0,1.0,0,0,0,0,0,0,0,0,0
64.671,16.3,0,-1,-1,2,0,1.0,0,0,0,0,0,0,0,0,0
64.991,16.3,0,-1,0,2,0,1.0,0,0,0,0,0,0,0,0,320
65.312,16.4,0,0,0,2,0,1.0,0,0,0,0,0,0,0,0,0
65.633,16.3,-1,0,0,2,0,1.0,0,0,0,0,0,0,0,0,320
65.956,16.3,0,-1,0,2,0,1.0,0,0,0,0,0,0,0,0,650
66.281,16.4,0,-1,0,2,0,1.0,0,0,0,0,0,0,0,0,0
66.602,16.3,0,-1,0,2,0,1.0,0,0,0,0,0,0,0,0,320
66.925,16.4,0,-1,0,2,0,1.0,0,0,0,0,0,0,0,0,0
67.247,16.4,0,-1,0,2,0,1.0,0,0,0,0,0,0,0,0,0
67.572,16.4,0,-1,-1,2,0,1.0,0,0,0,0,0,0,0,0,330
67.897,16.3,0,-1,0,2,0,1.0,0,0,0,0,0,0,0,0,0
68.264,16.4,-1,-1,0,2,0,1.0,0,0,0,0,0,0,0,0,0
68.585,16.3,-1,-1,-1,2,0,1.0,0,0,0,0,0,0,0,0,320
68.91,16.3,0,0,0,2,0,1.0,0,0,0,0,0,0,0,0,0
69.232,16.3,0,-1,-1,2,0,1.0,0,0,0,0,0,0,0,0,330
69.589,16.3,-1,-1,0,2,0,1.0,0,0,0,0,0,0,0,0,0
69.892,16.4,0,-1,0,2,0,1.0,0,0,0,0,0,0,0,0,0
70.195,16.4,0,0,0,2,0,1.0,0,0,0,0,0,0,0,0,310
70.498,16.4,-1,-1,0,2,0,1.0,0,0,0,0,0,0,0,0,0
70.802,16.3,0,0,0,2,0,1.0,0,0,0,0,0,0,0,0,0
71.103,16.4,0,0,0,2,0,1.0,0,0,0,0,0,0,0,0,300
71.408,16.3,0,-1,-1,2,0,1.0,0,0,0,0,0,0,0,0,0
71.714,16.4,0,-1,-1,2,0,1.0,0,0,0,0,0,0,0,0,310
72.016,16.4,-1,0,0,2,0,1.0,0,0,0,0,0,0,0,0,0
72.325,16.3,0,-1,-1,2,0,1.0,0,0,0,0,0,0,0,0,0
72.627,16.3,-1,0,-1,2,0,1.0,0,0,0,0,0,0,0,0,310
72.931,16.4,0,-1,0,2,0,1.0,0,0,0,0,0,0,0,0,0
73.279,16.3,0,-1,0,2,0,1.0,0,0,0,0,0,0,0,0,350
73.584,16.3,0,-1,0,2,0,1.0,0,0,0,0,0,0,0,0,660
73.891,16.3,0,-1,0,2,0,1.0,0,0,0,0,0,0,0,0,960
74.196,16.3,0,-1,-1,2,0,1.0,0,0,0,0,0,0,0,0,1270
74.5,16.4,0,0,0,2,0,1.0,0,0,0,0,0,0,0,0,1570
74.807,16.3,0,0,0,2,0,1.0,0,0,0,0,0,0,0,0,1880
75.111,16.4,-1,-1,-1,2,0,1.0,0,0,0,0,0,0,0,0,0
75.421,16.3,0,-1,-1,2,0,1.0,8,0,0,0,8,8,8,8,0
75.672,16.3,-1,-1,0,2,0,1.0,8,0,0,0,8,8,8,8,50
75.923,16.4,0,-1,0,2,0,1.0,8,0,0,0,8,8,8,8,20
76.176,16.3,-1,-1,0,2,0,1.0,8,0,0,0,8,8,8,8,0
76.427,16.3,-1,-1,-1,2,0,1.0,8,0,0,0,8,8,8,8,30
76.679,16.3,0,-1,0,2,0,1.0,8,0,0,0,8,8,8,8,60
76.93,16.3,0,-1,-1,2,0,1.0,8,0,0,0,8,8,8,8,40
77.181,16.3,-1,-1,-1,2,0,1.0,8,0,0,0,8,8,8,8,10
77.433,16.3,0,-1,0,2,0,1.0,8,0,0,0,8,8,8,8,40
77.684,16.3,-1,-3,0,2,0,1.0,8,0,0,0,8,8,8,8,10
77.936,16.3,44,2,18,4,0,1.3,8,0,0,0,8,8,8,8,50
78.187,16.3,32,-18,30,10,1,1.0,8,0,0,0,8,8,8,8,20
78.439,16.3,-128,119,66,2,-14,0.8,8,0,0,0,8,8,8,8,50
78.69,16.3,17,-11,45,-9,-42,1.0,8,0,0,0,8,8,8,8,10
78.942,16.3,-10,-27,21,1,-49,1.1,8,0,0,0,8,8,8,8,50
79.193,16.3,3,31,4,2,-50,1.0,8,0,0,0,8,8,8,8,20
79.445,16.4,2,22,11,1,-44,1.0,8,0,0,0,8,8,8,8,50
79.696,16.3,-8,-5,0,3,-38,1.0,8,0,0,0,8,8,8,8,20
79.948,16.3,-2,3,-5,3,-37,1.0,8,0,0,0,8,8,8,8,50
80.199,16.3,0,11,-8,2,-35,1.0,8,0,0,0,8,8,8,8,30
80.451,16.3,-1,2,-1,1,-32,1.0,8,0,0,0,8,8,8,8,60
80.702,16.3,-2,-2,0,1,-32,1.0,8,0,0,0,8,8,8,8,30
80.954,16.3,-1,-9,14,1,-32,1.0,8,0,0,0,8,8,8,8,0
81.206,16.3,-1,-9,6,2,-36,1.0,8,0,0,0,8,8,8,8,40
81.457,16.3,-1,-2,2,3,-38,1.0,8,0,0,0,8,8,8,8,10
81.709,16.3,-1,2,0,3,-39,1.0,8,0,0,0,8,8,8,8,40
81.96,16.3,2,13,1,4,-35,1.0,8,0,0,0,8,8,8,8,20
82.212,16.3,23,20,-38,6,-28,1.0,8,0,0,0,8,8,8,8,60
82.463,16.3,8,11,-119,7,-25,1.0,8,0,0,0,8,8,8,8,20
82.715,16.4,16,86,120,-4,-16,1.0,8,0,0,0,8,8,8,8,0
82.967,16.3,47,73,-92,-1,12,1.0,8,0,0,0,8,8,8,8,40
83.218,16.3,-31,18,-63,4,22,0.9,8,0,0,0,8,8,8,8,10
83.47,16.4,51,88,-15,11,37,1.0,8,0,0,0,8,8,8,8,40
83.721,16.3,-16,-32,-34,17,45,1.0,8,0,0,0,8,8,8,8,20
83.973,16.3,-7,9,-14,18,37,1.0,8,0,0,0,8,8,8,8,50
84.224,16.3,-4,22,-20,19,35,1.0,8,0,0,0,8,8,8,8,40
84.475,16.3,-34,-19,-32,18,32,1.0,8,0,0,0,8,8,8,8,10
84.727,16.3,-3,15,-7,20,32,1.0,8,0,0,0,8,8,8,8,40
84.978,16.4,-6,-7,6,21,33,1.0,8,0,0,0,8,8,8,8,10
85.23,16.3,-6,-2,5,20,33,1.0,8,0,0,0,8,8,8,8,50
85.481,16.3,1,0,-3,19,33,1.0,8,0,0,0,8,8,8,8,20
85.733,16.3,1,-10,-5,19,31,1.0,8,0,0,0,8,8,8,8,0
85.985,16.4,1,-5,-4,20,28,1.0,8,0,0,0,8,8,8,8,20
86.236,16.4,-5,0,0,20,28,1.0,8,0,0,0,8,8,8,8,60
86.488,16.3,-6,6,5,19,29,1.0,8,0,0,0,8,8,8,8,20
86.74,16.3,3,-3,-2,19,30,1.0,8,0,0,0,8,8,8,8,0
86.991,16.3,-8,4,5,19,30,1.0,8,0,0,0,8,8,8,8,40
87.243,16.3,0,2,4,18,32,1.0,8,0,0,0,8,8,8,8,0
87.494,16.3,-2,-1,0,17,33,1.0,8,0,0,0,8,8,8,8,30
87.746,16.3,1,-4,-1,17,34,1.0,8,0,0,0,8,8,8,8,10
87.997,16.3,-5,6,4,17,33,1.0,8,0,0,0,8,8,8,8,40
88.249,16.4,-1,-2,4,16,36,1.0,8,0,0,0,8,8,8,8,10
88.501,16.3,1,-2,4,16,37,1.0,8,0,0,0,8,8,8,8,50
88.752,16.3,5,-8,1,16,35,1.0,8,0,0,0,8,8,8,8,20
89.004,16.4,-2,-4,0,16,34,1.0,8,0,0,0,8,8,8,8,50
89.255,16.3,-1,0,0,16,33,1.0,8,0,0,0,8,8,8,8,20
89.506,16.3,-1,-1,0,16,34,1.0,8,0,0,0,8,8,8,8,10
89.758,16.3,-3,-2,1,16,33,1.0,8,0,0,0,8,8,8,8,30
90.01,16.3,-3,0,7,15,33,1.0,8,0,0,0,8,8,8,8,0
90.261,16.3,4,6,64,15,34,1.0,8,0,0,0,8,8,8,8,40
90.513,16.3,-8,-62,-128,7,37,1.0,8,0,0,0,8,8,8,8,10
90.764,16.4,36,-78,-112,-3,18,1.0,8,0,0,0,8,8,8,8,40
91.016,16.4,12,-24,120,-11,-9,1.0,8,0,0,0,8,8,8,8,20
91.268,16.4,-3,-24,17,-5,-18,1.0,8,0,0,0,8,8,8,8,0
91.519,16.4,23,8,7,-4,-22,1.0,8,0,0,0,8,8,8,8,30
91.771,16.3,14,20,-40,3,-21,0.9,8,0,0,0,8,8,8,8,60
92.022,16.3,22,49,-33,3,-9,1.0,8,0,0,0,8,8,8,8,40
92.273,16.3,-2,7,-16,3,0,1.0,8,0,0,0,8,8,8,8,10
92.525,16.3,43,37,4,9,4,1.0,8,0,0,0,8,8,8,8,40
92.776,16.3,-5,-24,1,11,0,1.0,8,0,0,0,8,8,8,8,10
93.028,16.3,7,17,2,10,4,1.0,8,0,0,0,8,8,8,8,50
93.279,16.3,30,27,-2,11,6,1.0,8,0,0,0,8,8,8,8,30
93.532,16.4,-44,-38,-20,8,0,1.1,8,0,0,0,8,8,8,8,0
93.783,16.3,-1,-2,-3,0,-4,1.0,8,0,0,0,8,8,8,8,30
94.034,16.3,-1,1,-1,2,-2,1.0,8,0,0,0,8,8,8,8,10
94.286,16.3,-3,-13,-2,2,-1,1.0,8,0,0,0,8,8,8,8,40
94.537,16.4,1,7,-1,2,-1,1.0,8,0,0,0,8,8,8,8,10
94.789,16.3,0,0,0,2,-1,1.0,8,0,0,0,8,8,8,8,40
95.04,16.4,-1,-1,0,2,0,1.0,8,0,0,0,8,8,8,8,20
95.292,16.3,-1,-1,-1,2,0,1.0,8,0,0,0,8,8,8,8,50
95.803,16.4,0,0,-1,3,0,1.0,0,0,0,0,0,0,0,0,500
96.119,16.3,0,-1,0,2,0,1.0,0,0,0,0,0,0,0,0,0
96.434,16.4,-1,-1,0,3,0,1.0,0,0,0,0,0,0,0,0,0
96.748,16.2,-2,-4,1,3,0,1.0,0,0,0,0,0,0,0,0,320
97.065,16.3,0,1,5,3,0,1.0,0,0,0,0,0,0,0,0,0
97.379,16.3,-2,-6,-2,2,-1,1.0,0,0,0,0,0,0,0,0,0
97.692,16.3,-1,0,0,2,0,1.0,0,0,0,0,0,0,0,0,320
